[{"city": "Akron", "state": "OH", "lat": 41.0791, "lon": -81.5169, "total": 333, "grades": {"A": 49, "B": 75, "C": 153, "D": 56}}, {"city": "Albany", "state": "NY", "lat": 42.6549, "lon": -73.7827, "total": 111, "grades": {"A": 26, "B": 26, "C": 36, "D": 23}}, {"city": "Allentown", "state": "PA", "lat": 40.6024, "lon": -75.475, "total": 67, "grades": {"A": 22, "B": 42, "C": 1, "D": 2}}, {"city": "Altoona", "state": "PA", "lat": 40.5061, "lon": -78.4022, "total": 87, "grades": {"A": 4, "B": 27, "C": 38, "D": 18}}, {"city": "Amarillo", "state": "TX", "lat": 35.2054, "lon": -101.8426, "total": 74, "grades": {"A": 10, "B": 17, "C": 17, "D": 30}}, {"city": "Arlington", "state": "MA", "lat": 42.4168, "lon": -71.1633, "total": 50, "grades": {"A": 7, "B": 26, "C": 17, "D": 0}}, {"city": "Asheville", "state": "NC", "lat": 35.5918, "lon": -82.5632, "total": 60, "grades": {"A": 8, "B": 16, "C": 24, "D": 12}}, {"city": "Atlanta", "state": "GA", "lat": 33.7671, "lon": -84.374, "total": 424, "grades": {"A": 24, "B": 78, "C": 194, "D": 128}}, {"city": "Atlantic City", "state": "NJ", "lat": 39.361, "lon": -74.4971, "total": 93, "grades": {"A": 5, "B": 21, "C": 55, "D": 12}}, {"city": "Augusta", "state": "GA", "lat": 33.4747, "lon": -81.9963, "total": 79, "grades": {"A": 4, "B": 18, "C": 23, "D": 34}}, {"city": "Aurora", "state": "IL", "lat": 41.7587, "lon": -88.3189, "total": 72, "grades": {"A": 4, "B": 14, "C": 25, "D": 29}}, {"city": "Austin", "state": "MN", "lat": 43.6662, "lon": -92.9754, "total": 12, "grades": {"A": 3, "B": 4, "C": 4, "D": 1}}, {"city": "Austin", "state": "TX", "lat": 30.2815, "lon": -97.7439, "total": 123, "grades": {"A": 29, "B": 47, "C": 13, "D": 34}}, {"city": "Baltimore", "state": "MD", "lat": 39.3111, "lon": -76.6308, "total": 460, "grades": {"A": 37, "B": 151, "C": 171, "D": 101}}, {"city": "Battle Creek", "state": "MI", "lat": 42.3192, "lon": -85.1951, "total": 90, "grades": {"A": 5, "B": 14, "C": 44, "D": 27}}, {"city": "Bay City", "state": "MI", "lat": 43.596, "lon": -83.8856, "total": 56, "grades": {"A": 1, "B": 9, "C": 19, "D": 27}}, {"city": "Beaumont", "state": "TX", "lat": 30.0794, "lon": -94.1073, "total": 50, "grades": {"A": 7, "B": 17, "C": 12, "D": 14}}, {"city": "Belmont", "state": "MA", "lat": 42.3912, "lon": -71.1728, "total": 61, "grades": {"A": 14, "B": 30, "C": 14, "D": 3}}, {"city": "Bergen Co.", "state": "NJ", "lat": 40.9029, "lon": -74.047, "total": 661, "grades": {"A": 24, "B": 199, "C": 344, "D": 94}}, {"city": "Bethlehem", "state": "PA", "lat": 40.6192, "lon": -75.3759, "total": 64, "grades": {"A": 8, "B": 26, "C": 19, "D": 11}}, {"city": "Binghamton-Johnson City", "state": "NY", "lat": 42.1044, "lon": -75.9651, "total": 94, "grades": {"A": 8, "B": 40, "C": 42, "D": 4}}, {"city": "Birmingham", "state": "AL", "lat": 33.5127, "lon": -86.8097, "total": 272, "grades": {"A": 15, "B": 55, "C": 80, "D": 122}}, {"city": "Boston", "state": "MA", "lat": 42.3213, "lon": -71.0913, "total": 406, "grades": {"A": 7, "B": 45, "C": 218, "D": 136}}, {"city": "Braintree", "state": "MA", "lat": 42.2205, "lon": -71.0, "total": 15, "grades": {"A": 1, "B": 9, "C": 5, "D": 0}}, {"city": "Bridgeport and Fairfield", "state": "CT", "lat": 41.182, "lon": -73.1982, "total": 213, "grades": {"A": 19, "B": 86, "C": 96, "D": 12}}, {"city": "Brockton", "state": "MA", "lat": 42.0831, "lon": -71.0273, "total": 75, "grades": {"A": 4, "B": 16, "C": 50, "D": 5}}, {"city": "Bronx", "state": "NY", "lat": 40.8531, "lon": -73.8791, "total": 638, "grades": {"A": 12, "B": 117, "C": 349, "D": 160}}, {"city": "Brookline", "state": "MA", "lat": 42.3311, "lon": -71.1344, "total": 66, "grades": {"A": 10, "B": 24, "C": 29, "D": 3}}, {"city": "Brooklyn", "state": "NY", "lat": 40.6481, "lon": -73.9561, "total": 1334, "grades": {"A": 10, "B": 332, "C": 510, "D": 482}}, {"city": "Buffalo", "state": "NY", "lat": 42.9196, "lon": -78.8422, "total": 232, "grades": {"A": 26, "B": 103, "C": 85, "D": 18}}, {"city": "Cambridge", "state": "MA", "lat": 42.3778, "lon": -71.1122, "total": 89, "grades": {"A": 1, "B": 18, "C": 34, "D": 36}}, {"city": "Camden", "state": "NJ", "lat": 39.917, "lon": -75.0745, "total": 160, "grades": {"A": 14, "B": 67, "C": 59, "D": 20}}, {"city": "Canton", "state": "OH", "lat": 40.8041, "lon": -81.3784, "total": 94, "grades": {"A": 8, "B": 34, "C": 32, "D": 20}}, {"city": "Cedar Rapids", "state": "IA", "lat": 41.9852, "lon": -91.6614, "total": 117, "grades": {"A": 15, "B": 53, "C": 30, "D": 19}}, {"city": "Charleston", "state": "WV", "lat": 38.3516, "lon": -81.6318, "total": 86, "grades": {"A": 7, "B": 21, "C": 35, "D": 23}}, {"city": "Charlotte", "state": "NC", "lat": 35.224, "lon": -80.8374, "total": 132, "grades": {"A": 14, "B": 22, "C": 49, "D": 47}}, {"city": "Chattanooga", "state": "TN", "lat": 35.0396, "lon": -85.2836, "total": 98, "grades": {"A": 13, "B": 27, "C": 31, "D": 27}}, {"city": "Chelsea", "state": "MA", "lat": 42.3992, "lon": -71.032, "total": 27, "grades": {"A": 0, "B": 0, "C": 19, "D": 8}}, {"city": "Chester", "state": "PA", "lat": 39.8582, "lon": -75.3698, "total": 42, "grades": {"A": 17, "B": 11, "C": 10, "D": 4}}, {"city": "Chicago", "state": "IL", "lat": 41.8711, "lon": -87.7191, "total": 3115, "grades": {"A": 119, "B": 510, "C": 1657, "D": 829}}, {"city": "Cleveland", "state": "OH", "lat": 41.4792, "lon": -81.6561, "total": 998, "grades": {"A": 119, "B": 256, "C": 459, "D": 164}}, {"city": "Columbia", "state": "SC", "lat": 34.0014, "lon": -81.0118, "total": 81, "grades": {"A": 10, "B": 19, "C": 28, "D": 24}}, {"city": "Columbus", "state": "GA", "lat": 32.4762, "lon": -84.9695, "total": 69, "grades": {"A": 6, "B": 13, "C": 27, "D": 23}}, {"city": "Columbus", "state": "OH", "lat": 39.9865, "lon": -82.9967, "total": 376, "grades": {"A": 33, "B": 118, "C": 165, "D": 60}}, {"city": "Council Bluffs", "state": "IA", "lat": 41.2627, "lon": -95.8671, "total": 55, "grades": {"A": 5, "B": 23, "C": 12, "D": 15}}, {"city": "Covington", "state": "KY", "lat": 39.0727, "lon": -84.5058, "total": 146, "grades": {"A": 21, "B": 48, "C": 57, "D": 20}}, {"city": "Dallas", "state": "TX", "lat": 32.7897, "lon": -96.8013, "total": 294, "grades": {"A": 49, "B": 76, "C": 126, "D": 43}}, {"city": "Davenport", "state": "IA", "lat": 41.536, "lon": -90.5816, "total": 109, "grades": {"A": 7, "B": 30, "C": 52, "D": 20}}, {"city": "Dayton", "state": "OH", "lat": 39.7502, "lon": -84.187, "total": 222, "grades": {"A": 30, "B": 61, "C": 81, "D": 50}}, {"city": "Decatur", "state": "IL", "lat": 39.8464, "lon": -88.9529, "total": 84, "grades": {"A": 4, "B": 22, "C": 29, "D": 29}}, {"city": "Dedham", "state": "MA", "lat": 42.249, "lon": -71.1618, "total": 25, "grades": {"A": 0, "B": 3, "C": 14, "D": 8}}, {"city": "Denver", "state": "CO", "lat": 39.7318, "lon": -104.979, "total": 313, "grades": {"A": 23, "B": 59, "C": 148, "D": 83}}, {"city": "Des Moines", "state": "IA", "lat": 41.598, "lon": -93.6229, "total": 163, "grades": {"A": 30, "B": 32, "C": 57, "D": 44}}, {"city": "Detroit", "state": "MI", "lat": 42.3845, "lon": -83.1191, "total": 1426, "grades": {"A": 85, "B": 223, "C": 730, "D": 388}}, {"city": "Dubuque", "state": "IA", "lat": 42.5102, "lon": -90.6722, "total": 50, "grades": {"A": 4, "B": 16, "C": 16, "D": 14}}, {"city": "Duluth", "state": "MN", "lat": 46.7869, "lon": -92.1077, "total": 100, "grades": {"A": 13, "B": 28, "C": 39, "D": 20}}, {"city": "Durham", "state": "NC", "lat": 36.0003, "lon": -78.9078, "total": 66, "grades": {"A": 12, "B": 11, "C": 30, "D": 13}}, {"city": "East St. Louis", "state": "IL", "lat": 38.6349, "lon": -90.1136, "total": 125, "grades": {"A": 15, "B": 21, "C": 44, "D": 45}}, {"city": "El Paso", "state": "TX", "lat": 31.7838, "lon": -106.464, "total": 90, "grades": {"A": 12, "B": 23, "C": 25, "D": 30}}, {"city": "Elmira", "state": "NY", "lat": 42.0942, "lon": -76.8131, "total": 63, "grades": {"A": 2, "B": 17, "C": 24, "D": 20}}, {"city": "Erie", "state": "PA", "lat": 42.1137, "lon": -80.0788, "total": 156, "grades": {"A": 11, "B": 63, "C": 63, "D": 19}}, {"city": "Essex Co.", "state": "NJ", "lat": 40.7745, "lon": -74.2181, "total": 782, "grades": {"A": 131, "B": 216, "C": 289, "D": 146}}, {"city": "Evansville", "state": "IN", "lat": 37.972, "lon": -87.5606, "total": 111, "grades": {"A": 10, "B": 10, "C": 62, "D": 29}}, {"city": "Everett", "state": "MA", "lat": 42.4113, "lon": -71.0524, "total": 29, "grades": {"A": 0, "B": 0, "C": 14, "D": 15}}, {"city": "Fall River", "state": "MA", "lat": 41.6988, "lon": -71.149, "total": 67, "grades": {"A": 11, "B": 26, "C": 19, "D": 11}}, {"city": "Fargo", "state": "ND", "lat": 46.8811, "lon": -96.7936, "total": 41, "grades": {"A": 9, "B": 6, "C": 9, "D": 17}}, {"city": "Fitchburg", "state": "MA", "lat": 42.5785, "lon": -71.7985, "total": 50, "grades": {"A": 6, "B": 16, "C": 24, "D": 4}}, {"city": "Flint", "state": "MI", "lat": 43.0227, "lon": -83.6932, "total": 171, "grades": {"A": 5, "B": 21, "C": 69, "D": 76}}, {"city": "Fort Wayne", "state": "IN", "lat": 41.0713, "lon": -85.1394, "total": 136, "grades": {"A": 8, "B": 37, "C": 80, "D": 11}}, {"city": "Fort Worth", "state": "TX", "lat": 32.7375, "lon": -97.331, "total": 224, "grades": {"A": 32, "B": 62, "C": 58, "D": 72}}, {"city": "Fresno", "state": "CA", "lat": 36.7476, "lon": -119.7815, "total": 103, "grades": {"A": 3, "B": 20, "C": 56, "D": 24}}, {"city": "Galveston", "state": "TX", "lat": 29.292, "lon": -94.803, "total": 46, "grades": {"A": 14, "B": 16, "C": 5, "D": 11}}, {"city": "Grand Forks", "state": "ND", "lat": 47.9217, "lon": -97.0428, "total": 26, "grades": {"A": 4, "B": 6, "C": 6, "D": 10}}, {"city": "Grand Rapids", "state": "MI", "lat": 42.952, "lon": -85.6561, "total": 225, "grades": {"A": 17, "B": 62, "C": 120, "D": 26}}, {"city": "Greater Kansas City", "state": "MO", "lat": 39.0619, "lon": -94.5824, "total": 517, "grades": {"A": 33, "B": 69, "C": 202, "D": 213}}, {"city": "Greensboro", "state": "NC", "lat": 36.0762, "lon": -79.7946, "total": 80, "grades": {"A": 10, "B": 16, "C": 38, "D": 16}}, {"city": "Hamilton", "state": "OH", "lat": 39.395, "lon": -84.5619, "total": 55, "grades": {"A": 3, "B": 13, "C": 26, "D": 13}}, {"city": "Harrisburg", "state": "PA", "lat": 40.2624, "lon": -76.874, "total": 112, "grades": {"A": 8, "B": 45, "C": 17, "D": 42}}, {"city": "Hartford", "state": "CT", "lat": 41.7668, "lon": -72.6989, "total": 176, "grades": {"A": 40, "B": 36, "C": 79, "D": 21}}, {"city": "Haverhill", "state": "MA", "lat": 42.7817, "lon": -71.081, "total": 61, "grades": {"A": 4, "B": 16, "C": 27, "D": 14}}, {"city": "Holyoke Chicopee", "state": "MA", "lat": 42.1839, "lon": -72.606, "total": 80, "grades": {"A": 3, "B": 22, "C": 42, "D": 13}}, {"city": "Houston", "state": "TX", "lat": 29.7469, "lon": -95.3626, "total": 268, "grades": {"A": 61, "B": 62, "C": 86, "D": 59}}, {"city": "Hudson Co.", "state": "NJ", "lat": 40.7456, "lon": -74.0615, "total": 427, "grades": {"A": 0, "B": 31, "C": 183, "D": 213}}, {"city": "Huntington", "state": "WV", "lat": 38.4122, "lon": -82.4319, "total": 112, "grades": {"A": 18, "B": 27, "C": 56, "D": 11}}, {"city": "Indianapolis", "state": "IN", "lat": 39.7911, "lon": -86.1405, "total": 488, "grades": {"A": 26, "B": 84, "C": 202, "D": 176}}, {"city": "Jackson", "state": "MI", "lat": 42.2411, "lon": -84.4047, "total": 74, "grades": {"A": 3, "B": 20, "C": 38, "D": 13}}, {"city": "Jackson", "state": "MS", "lat": 32.3123, "lon": -90.1975, "total": 77, "grades": {"A": 9, "B": 19, "C": 26, "D": 23}}, {"city": "Jacksonville", "state": "FL", "lat": 30.3242, "lon": -81.6765, "total": 103, "grades": {"A": 10, "B": 22, "C": 37, "D": 34}}, {"city": "Jamestown", "state": "NY", "lat": 42.0968, "lon": -79.2383, "total": 59, "grades": {"A": 5, "B": 19, "C": 30, "D": 5}}, {"city": "Johnstown", "state": "PA", "lat": 40.3207, "lon": -78.9177, "total": 78, "grades": {"A": 0, "B": 13, "C": 33, "D": 32}}, {"city": "Joliet", "state": "IL", "lat": 41.5293, "lon": -88.0858, "total": 118, "grades": {"A": 8, "B": 30, "C": 50, "D": 30}}, {"city": "Kalamazoo", "state": "MI", "lat": 42.2834, "lon": -85.5853, "total": 108, "grades": {"A": 4, "B": 19, "C": 69, "D": 16}}, {"city": "Kenosha", "state": "WI", "lat": 42.5799, "lon": -87.8394, "total": 74, "grades": {"A": 1, "B": 8, "C": 33, "D": 32}}, {"city": "Knoxville", "state": "TN", "lat": 35.9795, "lon": -83.9226, "total": 117, "grades": {"A": 9, "B": 22, "C": 50, "D": 36}}, {"city": "Lake Co. Gary", "state": "IN", "lat": 41.5902, "lon": -87.4017, "total": 203, "grades": {"A": 26, "B": 23, "C": 85, "D": 69}}, {"city": "Lancaster", "state": "PA", "lat": 40.0421, "lon": -76.3101, "total": 81, "grades": {"A": 21, "B": 52, "C": 2, "D": 6}}, {"city": "Lansing", "state": "MI", "lat": 42.7292, "lon": -84.5389, "total": 116, "grades": {"A": 13, "B": 31, "C": 55, "D": 17}}, {"city": "Lawrence", "state": "MA", "lat": 42.7067, "lon": -71.1636, "total": 67, "grades": {"A": 0, "B": 12, "C": 35, "D": 20}}, {"city": "Lexington", "state": "KY", "lat": 38.0414, "lon": -84.493, "total": 95, "grades": {"A": 15, "B": 16, "C": 39, "D": 25}}, {"city": "Lexington", "state": "MA", "lat": 42.4469, "lon": -71.2276, "total": 27, "grades": {"A": 9, "B": 7, "C": 11, "D": 0}}, {"city": "Lima", "state": "OH", "lat": 40.7373, "lon": -84.1136, "total": 89, "grades": {"A": 4, "B": 24, "C": 44, "D": 17}}, {"city": "Lincoln", "state": "NE", "lat": 40.8133, "lon": -96.6763, "total": 113, "grades": {"A": 17, "B": 40, "C": 49, "D": 7}}, {"city": "Little Rock", "state": "AR", "lat": 34.7502, "lon": -92.2884, "total": 101, "grades": {"A": 14, "B": 27, "C": 31, "D": 29}}, {"city": "Lorain", "state": "OH", "lat": 41.456, "lon": -82.1622, "total": 51, "grades": {"A": 0, "B": 12, "C": 26, "D": 13}}, {"city": "Los Angeles", "state": "CA", "lat": 34.0368, "lon": -118.2576, "total": 2997, "grades": {"A": 234, "B": 619, "C": 1469, "D": 675}}, {"city": "Louisville", "state": "KY", "lat": 38.2277, "lon": -85.7432, "total": 267, "grades": {"A": 28, "B": 67, "C": 106, "D": 66}}, {"city": "Lowell", "state": "MA", "lat": 42.6407, "lon": -71.3127, "total": 83, "grades": {"A": 4, "B": 38, "C": 20, "D": 21}}, {"city": "Lower Westchester Co.", "state": "NY", "lat": 40.9319, "lon": -73.8309, "total": 382, "grades": {"A": 82, "B": 124, "C": 118, "D": 58}}, {"city": "Lynchburg", "state": "VA", "lat": 37.4113, "lon": -79.1644, "total": 51, "grades": {"A": 11, "B": 7, "C": 22, "D": 11}}, {"city": "Lynn", "state": "MA", "lat": 42.4719, "lon": -70.9537, "total": 95, "grades": {"A": 13, "B": 33, "C": 35, "D": 14}}, {"city": "Macon", "state": "GA", "lat": 32.8355, "lon": -83.6535, "total": 95, "grades": {"A": 4, "B": 11, "C": 31, "D": 49}}, {"city": "Madison", "state": "WI", "lat": 43.0746, "lon": -89.3901, "total": 125, "grades": {"A": 14, "B": 29, "C": 55, "D": 27}}, {"city": "Malden", "state": "MA", "lat": 42.4291, "lon": -71.0594, "total": 46, "grades": {"A": 0, "B": 3, "C": 21, "D": 22}}, {"city": "Manchester", "state": "NH", "lat": 42.9904, "lon": -71.4577, "total": 95, "grades": {"A": 3, "B": 11, "C": 49, "D": 32}}, {"city": "Manhattan", "state": "NY", "lat": 40.7823, "lon": -73.9628, "total": 485, "grades": {"A": 55, "B": 102, "C": 52, "D": 276}}, {"city": "McKeesport", "state": "PA", "lat": 40.3455, "lon": -79.8476, "total": 54, "grades": {"A": 2, "B": 20, "C": 23, "D": 9}}, {"city": "Medford", "state": "MA", "lat": 42.422, "lon": -71.1094, "total": 37, "grades": {"A": 4, "B": 9, "C": 24, "D": 0}}, {"city": "Melrose", "state": "MA", "lat": 42.4621, "lon": -71.0613, "total": 26, "grades": {"A": 7, "B": 9, "C": 10, "D": 0}}, {"city": "Memphis", "state": "TN", "lat": 35.1349, "lon": -89.9948, "total": 182, "grades": {"A": 27, "B": 45, "C": 59, "D": 51}}, {"city": "Miami", "state": "FL", "lat": 25.793, "lon": -80.2136, "total": 388, "grades": {"A": 57, "B": 101, "C": 137, "D": 93}}, {"city": "Milton", "state": "MA", "lat": 42.2606, "lon": -71.0761, "total": 28, "grades": {"A": 11, "B": 11, "C": 6, "D": 0}}, {"city": "Milwaukee Co.", "state": "WI", "lat": 43.041, "lon": -87.9529, "total": 624, "grades": {"A": 39, "B": 117, "C": 303, "D": 165}}, {"city": "Minneapolis", "state": "MN", "lat": 44.9639, "lon": -93.2678, "total": 370, "grades": {"A": 50, "B": 110, "C": 117, "D": 93}}, {"city": "Mobile", "state": "AL", "lat": 30.6811, "lon": -88.0742, "total": 93, "grades": {"A": 6, "B": 21, "C": 37, "D": 29}}, {"city": "Montgomery", "state": "AL", "lat": 32.3644, "lon": -86.2964, "total": 81, "grades": {"A": 9, "B": 12, "C": 29, "D": 31}}, {"city": "Muncie", "state": "IN", "lat": 40.1914, "lon": -85.3875, "total": 57, "grades": {"A": 0, "B": 10, "C": 34, "D": 13}}, {"city": "Muskegon", "state": "MI", "lat": 43.2196, "lon": -86.2496, "total": 74, "grades": {"A": 1, "B": 11, "C": 27, "D": 35}}, {"city": "Nashville", "state": "TN", "lat": 36.1493, "lon": -86.7876, "total": 118, "grades": {"A": 15, "B": 18, "C": 29, "D": 56}}, {"city": "Needham", "state": "MA", "lat": 42.2865, "lon": -71.2321, "total": 16, "grades": {"A": 0, "B": 8, "C": 5, "D": 3}}, {"city": "New Bedford", "state": "MA", "lat": 41.6451, "lon": -70.9309, "total": 70, "grades": {"A": 16, "B": 34, "C": 8, "D": 12}}, {"city": "New Britain", "state": "CT", "lat": 41.6727, "lon": -72.7816, "total": 61, "grades": {"A": 8, "B": 13, "C": 34, "D": 6}}, {"city": "New Castle", "state": "PA", "lat": 40.9973, "lon": -80.3444, "total": 58, "grades": {"A": 7, "B": 14, "C": 22, "D": 15}}, {"city": "New Haven", "state": "CT", "lat": 41.312, "lon": -72.9255, "total": 176, "grades": {"A": 20, "B": 36, "C": 88, "D": 32}}, {"city": "New Orleans", "state": "LA", "lat": 29.9576, "lon": -90.0876, "total": 480, "grades": {"A": 22, "B": 65, "C": 204, "D": 189}}, {"city": "Newport News", "state": "VA", "lat": 36.9871, "lon": -76.4167, "total": 38, "grades": {"A": 0, "B": 2, "C": 13, "D": 23}}, {"city": "Newton", "state": "MA", "lat": 42.3358, "lon": -71.2092, "total": 66, "grades": {"A": 12, "B": 31, "C": 21, "D": 2}}, {"city": "Niagara Falls", "state": "NY", "lat": 43.0939, "lon": -79.0222, "total": 54, "grades": {"A": 1, "B": 23, "C": 20, "D": 10}}, {"city": "Norfolk", "state": "VA", "lat": 36.8974, "lon": -76.3029, "total": 334, "grades": {"A": 17, "B": 42, "C": 156, "D": 119}}, {"city": "Oakland", "state": "CA", "lat": 37.8124, "lon": -122.2343, "total": 568, "grades": {"A": 52, "B": 164, "C": 236, "D": 116}}, {"city": "Ogden", "state": "UT", "lat": 41.2256, "lon": -111.9631, "total": 85, "grades": {"A": 9, "B": 26, "C": 19, "D": 31}}, {"city": "Oklahoma City", "state": "OK", "lat": 35.476, "lon": -97.5293, "total": 309, "grades": {"A": 54, "B": 48, "C": 116, "D": 91}}, {"city": "Omaha", "state": "NE", "lat": 41.251, "lon": -95.9757, "total": 153, "grades": {"A": 28, "B": 79, "C": 28, "D": 18}}, {"city": "Oshkosh", "state": "WI", "lat": 44.022, "lon": -88.5406, "total": 56, "grades": {"A": 0, "B": 5, "C": 23, "D": 28}}, {"city": "Passaic County", "state": "NJ", "lat": 40.9034, "lon": -74.1628, "total": 274, "grades": {"A": 8, "B": 61, "C": 149, "D": 56}}, {"city": "Pawtucket & Central Falls", "state": "RI", "lat": 41.8778, "lon": -71.3829, "total": 94, "grades": {"A": 17, "B": 41, "C": 26, "D": 10}}, {"city": "Peoria", "state": "IL", "lat": 40.7056, "lon": -89.6005, "total": 83, "grades": {"A": 9, "B": 19, "C": 41, "D": 14}}, {"city": "Perth Amboy", "state": "NJ", "lat": 40.5431, "lon": -74.2839, "total": 79, "grades": {"A": 2, "B": 11, "C": 41, "D": 25}}, {"city": "Philadelphia", "state": "PA", "lat": 40.0156, "lon": -75.1562, "total": 860, "grades": {"A": 78, "B": 299, "C": 202, "D": 281}}, {"city": "Phoenix", "state": "AZ", "lat": 33.4643, "lon": -112.0662, "total": 100, "grades": {"A": 8, "B": 41, "C": 26, "D": 25}}, {"city": "Pittsburgh", "state": "PA", "lat": 40.4461, "lon": -79.9712, "total": 641, "grades": {"A": 51, "B": 181, "C": 228, "D": 181}}, {"city": "Pittsfield", "state": "MA", "lat": 42.4522, "lon": -73.2509, "total": 50, "grades": {"A": 4, "B": 21, "C": 20, "D": 5}}, {"city": "Pontiac", "state": "MI", "lat": 42.6407, "lon": -83.297, "total": 94, "grades": {"A": 9, "B": 22, "C": 37, "D": 26}}, {"city": "Port Arthur", "state": "TX", "lat": 29.8983, "lon": -93.9325, "total": 27, "grades": {"A": 14, "B": 6, "C": 3, "D": 4}}, {"city": "Portland", "state": "ME", "lat": 43.6588, "lon": -70.2727, "total": 88, "grades": {"A": 12, "B": 25, "C": 30, "D": 21}}, {"city": "Portland", "state": "OR", "lat": 45.5237, "lon": -122.6456, "total": 400, "grades": {"A": 41, "B": 115, "C": 189, "D": 55}}, {"city": "Portsmouth", "state": "OH", "lat": 38.7473, "lon": -82.9642, "total": 49, "grades": {"A": 4, "B": 8, "C": 24, "D": 13}}, {"city": "Poughkeepsie", "state": "NY", "lat": 41.7004, "lon": -73.92, "total": 51, "grades": {"A": 5, "B": 12, "C": 22, "D": 12}}, {"city": "Providence", "state": "RI", "lat": 41.8141, "lon": -71.423, "total": 177, "grades": {"A": 17, "B": 57, "C": 93, "D": 10}}, {"city": "Pueblo", "state": "CO", "lat": 38.2648, "lon": -104.6221, "total": 101, "grades": {"A": 15, "B": 33, "C": 26, "D": 27}}, {"city": "Queens", "state": "NY", "lat": 40.7169, "lon": -73.8298, "total": 1482, "grades": {"A": 5, "B": 125, "C": 1101, "D": 251}}, {"city": "Quincy", "state": "MA", "lat": 42.2601, "lon": -71.0056, "total": 56, "grades": {"A": 0, "B": 19, "C": 34, "D": 3}}, {"city": "Racine", "state": "WI", "lat": 42.7265, "lon": -87.8083, "total": 98, "grades": {"A": 3, "B": 28, "C": 40, "D": 27}}, {"city": "Revere", "state": "MA", "lat": 42.4139, "lon": -71.0067, "total": 32, "grades": {"A": 0, "B": 0, "C": 17, "D": 15}}, {"city": "Richmond", "state": "VA", "lat": 37.5545, "lon": -77.4566, "total": 190, "grades": {"A": 21, "B": 50, "C": 62, "D": 57}}, {"city": "Roanoke", "state": "VA", "lat": 37.2753, "lon": -79.9613, "total": 84, "grades": {"A": 4, "B": 12, "C": 36, "D": 32}}, {"city": "Rochester", "state": "MN", "lat": 44.021, "lon": -92.4622, "total": 19, "grades": {"A": 2, "B": 5, "C": 7, "D": 5}}, {"city": "Rochester", "state": "NY", "lat": 43.17, "lon": -77.6022, "total": 297, "grades": {"A": 30, "B": 58, "C": 160, "D": 49}}, {"city": "Rockford", "state": "IL", "lat": 42.2762, "lon": -89.0775, "total": 132, "grades": {"A": 11, "B": 29, "C": 42, "D": 50}}, {"city": "Sacramento", "state": "CA", "lat": 38.5628, "lon": -121.469, "total": 151, "grades": {"A": 5, "B": 32, "C": 94, "D": 20}}, {"city": "Saginaw", "state": "MI", "lat": 43.4226, "lon": -83.9557, "total": 97, "grades": {"A": 10, "B": 11, "C": 60, "D": 16}}, {"city": "Salem", "state": "MA", "lat": 42.5155, "lon": -70.8962, "total": 52, "grades": {"A": 8, "B": 22, "C": 16, "D": 6}}, {"city": "Salt Lake City", "state": "UT", "lat": 40.7538, "lon": -111.883, "total": 147, "grades": {"A": 23, "B": 45, "C": 38, "D": 41}}, {"city": "San Antonio", "state": "TX", "lat": 29.4283, "lon": -98.4999, "total": 220, "grades": {"A": 18, "B": 69, "C": 84, "D": 49}}, {"city": "San Diego", "state": "CA", "lat": 32.7472, "lon": -117.157, "total": 414, "grades": {"A": 57, "B": 105, "C": 144, "D": 108}}, {"city": "San Francisco", "state": "CA", "lat": 37.7582, "lon": -122.4463, "total": 534, "grades": {"A": 51, "B": 153, "C": 172, "D": 158}}, {"city": "San Jose", "state": "CA", "lat": 37.334, "lon": -121.8992, "total": 148, "grades": {"A": 6, "B": 28, "C": 62, "D": 52}}, {"city": "Saugus", "state": "MA", "lat": 42.4577, "lon": -71.0059, "total": 22, "grades": {"A": 0, "B": 4, "C": 5, "D": 13}}, {"city": "Savannah", "state": "GA", "lat": 32.0602, "lon": -81.0956, "total": 78, "grades": {"A": 9, "B": 29, "C": 21, "D": 19}}, {"city": "Schenectady", "state": "NY", "lat": 42.8057, "lon": -73.9313, "total": 127, "grades": {"A": 15, "B": 19, "C": 75, "D": 18}}, {"city": "Seattle", "state": "WA", "lat": 47.6166, "lon": -122.3334, "total": 331, "grades": {"A": 28, "B": 134, "C": 114, "D": 55}}, {"city": "Shreveport", "state": "LA", "lat": 32.4831, "lon": -93.7531, "total": 99, "grades": {"A": 14, "B": 16, "C": 35, "D": 34}}, {"city": "Sioux City", "state": "IA", "lat": 42.5102, "lon": -96.4009, "total": 95, "grades": {"A": 7, "B": 18, "C": 36, "D": 34}}, {"city": "Somerville", "state": "MA", "lat": 42.3993, "lon": -71.1136, "total": 64, "grades": {"A": 0, "B": 12, "C": 52, "D": 0}}, {"city": "South Bend", "state": "IN", "lat": 41.6712, "lon": -86.2368, "total": 160, "grades": {"A": 26, "B": 33, "C": 71, "D": 30}}, {"city": "Spokane", "state": "WA", "lat": 47.6692, "lon": -117.4048, "total": 205, "grades": {"A": 19, "B": 39, "C": 96, "D": 51}}, {"city": "Springfield", "state": "IL", "lat": 39.7959, "lon": -89.6504, "total": 99, "grades": {"A": 12, "B": 17, "C": 23, "D": 47}}, {"city": "Springfield", "state": "MO", "lat": 37.205, "lon": -93.2858, "total": 84, "grades": {"A": 6, "B": 15, "C": 26, "D": 37}}, {"city": "Springfield", "state": "OH", "lat": 39.9219, "lon": -83.803, "total": 93, "grades": {"A": 12, "B": 24, "C": 39, "D": 18}}, {"city": "St. Cloud", "state": "MN", "lat": 45.5607, "lon": -94.1714, "total": 31, "grades": {"A": 8, "B": 10, "C": 8, "D": 5}}, {"city": "St. Joseph", "state": "MO", "lat": 39.7656, "lon": -94.8368, "total": 79, "grades": {"A": 6, "B": 15, "C": 16, "D": 42}}, {"city": "St. Louis", "state": "MO", "lat": 38.6371, "lon": -90.2883, "total": 605, "grades": {"A": 103, "B": 218, "C": 210, "D": 74}}, {"city": "St. Paul", "state": "MN", "lat": 44.9502, "lon": -93.12, "total": 221, "grades": {"A": 27, "B": 67, "C": 69, "D": 58}}, {"city": "St. Petersburg", "state": "FL", "lat": 27.7788, "lon": -82.6689, "total": 175, "grades": {"A": 14, "B": 20, "C": 80, "D": 61}}, {"city": "Stamford, Darien, and New Canaan", "state": "CT", "lat": 41.0629, "lon": -73.5256, "total": 138, "grades": {"A": 30, "B": 56, "C": 36, "D": 16}}, {"city": "Staten Island", "state": "NY", "lat": 40.5961, "lon": -74.1211, "total": 332, "grades": {"A": 15, "B": 59, "C": 141, "D": 117}}, {"city": "Stockton", "state": "CA", "lat": 37.9636, "lon": -121.2857, "total": 89, "grades": {"A": 6, "B": 29, "C": 34, "D": 20}}, {"city": "Syracuse", "state": "NY", "lat": 43.046, "lon": -76.1471, "total": 231, "grades": {"A": 25, "B": 86, "C": 94, "D": 26}}, {"city": "Tacoma", "state": "WA", "lat": 47.2381, "lon": -122.4686, "total": 157, "grades": {"A": 10, "B": 31, "C": 86, "D": 30}}, {"city": "Tampa", "state": "FL", "lat": 27.9545, "lon": -82.4694, "total": 113, "grades": {"A": 11, "B": 30, "C": 37, "D": 35}}, {"city": "Terre Haute", "state": "IN", "lat": 39.4722, "lon": -87.3951, "total": 89, "grades": {"A": 6, "B": 9, "C": 37, "D": 37}}, {"city": "Toledo", "state": "OH", "lat": 41.6645, "lon": -83.5718, "total": 332, "grades": {"A": 37, "B": 93, "C": 175, "D": 27}}, {"city": "Topeka", "state": "KS", "lat": 39.0443, "lon": -95.6887, "total": 98, "grades": {"A": 13, "B": 20, "C": 25, "D": 40}}, {"city": "Trenton", "state": "NJ", "lat": 40.2309, "lon": -74.7498, "total": 120, "grades": {"A": 6, "B": 29, "C": 67, "D": 18}}, {"city": "Troy", "state": "NY", "lat": 42.7333, "lon": -73.6786, "total": 104, "grades": {"A": 4, "B": 25, "C": 40, "D": 35}}, {"city": "Tulsa", "state": "OK", "lat": 36.1496, "lon": -95.9698, "total": 110, "grades": {"A": 28, "B": 29, "C": 28, "D": 25}}, {"city": "Union Co.", "state": "NJ", "lat": 40.6585, "lon": -74.312, "total": 465, "grades": {"A": 43, "B": 141, "C": 197, "D": 84}}, {"city": "Utica", "state": "NY", "lat": 43.0911, "lon": -75.248, "total": 109, "grades": {"A": 11, "B": 20, "C": 53, "D": 25}}, {"city": "Waltham", "state": "MA", "lat": 42.3816, "lon": -71.2365, "total": 35, "grades": {"A": 2, "B": 12, "C": 14, "D": 7}}, {"city": "Warren", "state": "OH", "lat": 41.2384, "lon": -80.8087, "total": 48, "grades": {"A": 4, "B": 14, "C": 25, "D": 5}}, {"city": "Waterbury", "state": "CT", "lat": 41.5625, "lon": -73.0465, "total": 77, "grades": {"A": 3, "B": 15, "C": 44, "D": 15}}, {"city": "Waterloo", "state": "IA", "lat": 42.5005, "lon": -92.3407, "total": 77, "grades": {"A": 7, "B": 16, "C": 21, "D": 33}}, {"city": "Watertown", "state": "MA", "lat": 42.3688, "lon": -71.1818, "total": 30, "grades": {"A": 0, "B": 6, "C": 21, "D": 3}}, {"city": "Wheeling", "state": "WV", "lat": 40.0713, "lon": -80.6984, "total": 49, "grades": {"A": 7, "B": 6, "C": 18, "D": 18}}, {"city": "Wichita Falls", "state": "TX", "lat": 33.8891, "lon": -98.5142, "total": 33, "grades": {"A": 12, "B": 12, "C": 6, "D": 3}}, {"city": "Wichita", "state": "KS", "lat": 37.6933, "lon": -97.3204, "total": 153, "grades": {"A": 33, "B": 17, "C": 22, "D": 81}}, {"city": "Wilkes-Barre", "state": "PA", "lat": 41.2487, "lon": -75.8935, "total": 80, "grades": {"A": 39, "B": 18, "C": 0, "D": 23}}, {"city": "Winchester", "state": "MA", "lat": 42.4543, "lon": -71.1366, "total": 20, "grades": {"A": 2, "B": 13, "C": 5, "D": 0}}, {"city": "Winston-Salem", "state": "NC", "lat": 36.0965, "lon": -80.242, "total": 94, "grades": {"A": 6, "B": 14, "C": 46, "D": 28}}, {"city": "Winthrop", "state": "MA", "lat": 42.3748, "lon": -70.9782, "total": 21, "grades": {"A": 0, "B": 8, "C": 9, "D": 4}}, {"city": "Woonsocket", "state": "RI", "lat": 42.0014, "lon": -71.5081, "total": 34, "grades": {"A": 1, "B": 13, "C": 7, "D": 13}}, {"city": "Worcester", "state": "MA", "lat": 42.266, "lon": -71.8051, "total": 138, "grades": {"A": 9, "B": 42, "C": 68, "D": 19}}, {"city": "York", "state": "PA", "lat": 39.9613, "lon": -76.7242, "total": 96, "grades": {"A": 7, "B": 22, "C": 37, "D": 30}}, {"city": "Youngstown", "state": "OH", "lat": 41.082, "lon": -80.6481, "total": 189, "grades": {"A": 16, "B": 36, "C": 87, "D": 50}}]